city,latitude,longitude
Delhi,28.6139,77.2090
Mumbai,19.0760,72.8777
Bangalore,12.9716,77.5946
Hyderabad,17.3850,78.4867
Ahmedabad,23.0225,72.5714
Chennai,13.0827,80.2707
Kolkata,22.5726,88.3639
Pune,18.5204,73.8567
Jaipur,26.9124,75.7873
Lucknow,26.8467,80.9462
Bhopal,23.2599,77.4126
Patna,25.5941,85.1376
Indore,22.7196,75.8577
Thane,19.2183,72.9781
Nagpur,21.1458,79.0882
